timestamp,stop_id,route_id,direction_id,trip_start_date,trip_id,route_long_name,agency_id,origin_stop_id,origin_stop_name,destination_stop_id,destination_stop_name,congestion_level,position_longitude,position_latitude,position_bearing,occupancy_status,vehicle_label,stop_name,stop_lon,stop_lat,current_status,aimed_arrival_time,expected_arrival_time,aimed_departure_time,expected_departure_time,stop_sequence
1643602219,1046124,63689,0,20220130,143715669,"IJmuiden Dennekoplaan - Amsterdam Bijlmer ArenA",CXX,364790,"IJmuiden, Dennekoplaan",1928634,"Amsterdam, Station Bijlmer ArenA",null,4.83457088470459,52.30582809448242,0.0,null,9823,"IJmuiden, Heerenduinweg",4.628761,52.453043,IN_TRANSIT_TO,PT28H9M,1643598425,PT28H9M,1643598425,7
1643602219,1169962,63689,0,20220130,143715669,"IJmuiden Dennekoplaan - Amsterdam Bijlmer ArenA",CXX,364790,"IJmuiden, Dennekoplaan",1928634,"Amsterdam, Station Bijlmer ArenA",null,4.83457088470459,52.30582809448242,0.0,null,9823,"Driehuis, Waterloolaan",4.637681,52.44928,IN_TRANSIT_TO,PT28H10M,1643598509,PT28H10M,1643598509,8
1643602219,1539873,63689,0,20220130,143715669,"IJmuiden Dennekoplaan - Amsterdam Bijlmer ArenA",CXX,364790,"IJmuiden, Dennekoplaan",1928634,"Amsterdam, Station Bijlmer ArenA",null,4.83457088470459,52.30582809448242,0.0,null,9823,"Hoofddorp, Toolenburg Noord",4.669549,52.302813,IN_TRANSIT_TO,PT28H47M,1643600818,PT28H47M,1643600836,34
1643602219,1539879,63689,0,20220130,143715669,"IJmuiden Dennekoplaan - Amsterdam Bijlmer ArenA",CXX,364790,"IJmuiden, Dennekoplaan",1928634,"Amsterdam, Station Bijlmer ArenA",null,4.83457088470459,52.30582809448242,0.0,null,9823,"Hoofddorp, Overbos Noord",4.667884,52.318712,IN_TRANSIT_TO,PT28H43M,1643600607,PT28H43M,1643600625,31
1643602216,1539919,63689,1,20220130,143715668,"IJmuiden Dennekoplaan - Amsterdam Bijlmer ArenA",CXX,2367379,"Amsterdam, Station Bijlmer ArenA",435308,"IJmuiden, Dennekoplaan",null,4.6457295417785645,52.42985534667969,0.0,null,9816,"Hoofddorp, Toolenburg Noord",4.668926,52.303259,IN_TRANSIT_TO,PT28H40M,1643600470,PT28H40M,1643600470,38
1643602220,1539919,79847,1,20220130,143720668,"Haarlem Station - Amsterdam Bijlmer ArenA",CXX,2340430,"Amsterdam, Station Bijlmer ArenA",1828396,"Haarlem, Station",null,4.869431972503662,52.30384063720703,0.0,null,9803,"Hoofddorp, Toolenburg Noord",4.668926,52.303259,IN_TRANSIT_TO,PT29H39M,1643603938,PT29H39M,1643603938,35
1643602216,1539925,63689,1,20220130,143715668,"IJmuiden Dennekoplaan - Amsterdam Bijlmer ArenA",CXX,2367379,"Amsterdam, Station Bijlmer ArenA",435308,"IJmuiden, Dennekoplaan",null,4.6457295417785645,52.42985534667969,0.0,null,9816,"Hoofddorp, Overbos Noord",4.667277,52.319112,IN_TRANSIT_TO,PT28H43M,1643600686,PT28H43M,1643600686,41
1643602227,1539925,63689,1,20220130,143715670,"IJmuiden Dennekoplaan - Amsterdam Bijlmer ArenA",CXX,2367379,"Amsterdam, Station Bijlmer ArenA",1828327,"Haarlem, Station H",null,4.693774700164795,52.29030990600586,0.0,null,9822,"Hoofddorp, Overbos Noord",4.667277,52.319112,IN_TRANSIT_TO,PT29H13M,1643602500,PT29H13M,1643602500,41
1643602220,1539925,79847,1,20220130,143720668,"Haarlem Station - Amsterdam Bijlmer ArenA",CXX,2340430,"Amsterdam, Station Bijlmer ArenA",1828396,"Haarlem, Station",null,4.869431972503662,52.30384063720703,0.0,null,9803,"Hoofddorp, Overbos Noord",4.667277,52.319112,IN_TRANSIT_TO,PT29H42M,1643604129,PT29H42M,1643604153,39
1643602219,1657215,63689,0,20220130,143715669,"IJmuiden Dennekoplaan - Amsterdam Bijlmer ArenA",CXX,364790,"IJmuiden, Dennekoplaan",1928634,"Amsterdam, Station Bijlmer ArenA",null,4.83457088470459,52.30582809448242,0.0,null,9823,"Haarlem, Station K",4.638771,52.387424,IN_TRANSIT_TO,PT28H26M,1643599352,PT28H26M,1643599584,14
1643602216,1692570,63689,1,20220130,143715668,"IJmuiden Dennekoplaan - Amsterdam Bijlmer ArenA",CXX,2367379,"Amsterdam, Station Bijlmer ArenA",435308,"IJmuiden, Dennekoplaan",null,4.6457295417785645,52.42985534667969,0.0,null,9816,"Hoofddorp, Spaarne Gasthuis",4.654088,52.324613,IN_TRANSIT_TO,PT28H45M,1643600766,PT28H45M,1643600796,42
1643602227,1692570,63689,1,20220130,143715670,"IJmuiden Dennekoplaan - Amsterdam Bijlmer ArenA",CXX,2367379,"Amsterdam, Station Bijlmer ArenA",1828327,"Haarlem, Station H",null,4.693774700164795,52.29030990600586,0.0,null,9822,"Hoofddorp, Spaarne Gasthuis",4.654088,52.324613,IN_TRANSIT_TO,PT29H15M,1643602554,PT29H15M,1643602554,42
1643602220,1692570,79847,1,20220130,143720668,"Haarlem Station - Amsterdam Bijlmer ArenA",CXX,2340430,"Amsterdam, Station Bijlmer ArenA",1828396,"Haarlem, Station",null,4.869431972503662,52.30384063720703,0.0,null,9803,"Hoofddorp, Spaarne Gasthuis",4.654088,52.324613,IN_TRANSIT_TO,PT29H45M,1643604237,PT29H45M,1643604317,40
1643602216,1828327,63689,1,20220130,143715668,"IJmuiden Dennekoplaan - Amsterdam Bijlmer ArenA",CXX,2367379,"Amsterdam, Station Bijlmer ArenA",435308,"IJmuiden, Dennekoplaan",null,4.6457295417785645,52.42985534667969,0.0,null,9816,"Haarlem, Station H",4.637537,52.387443,IN_TRANSIT_TO,PT29H1M,1643601734,PT29H1M,1643601734,58
1643602220,1828396,79847,1,20220130,143720668,"Haarlem Station - Amsterdam Bijlmer ArenA",CXX,2340430,"Amsterdam, Station Bijlmer ArenA",1828396,"Haarlem, Station",null,4.869431972503662,52.30384063720703,0.0,null,9803,"Haarlem, Station",4.638801,52.387424,IN_TRANSIT_TO,PT30H2M,1643605185,PT30H2M,1643605185,52
1643602216,1861681,63689,1,20220130,143715668,"IJmuiden Dennekoplaan - Amsterdam Bijlmer ArenA",CXX,2367379,"Amsterdam, Station Bijlmer ArenA",435308,"IJmuiden, Dennekoplaan",null,4.6457295417785645,52.42985534667969,0.0,null,9816,"Hoofddorp, De Hoek",4.720146,52.290158,IN_TRANSIT_TO,PT28H34M,1643600142,PT28H34M,1643600142,31
1643602227,1861681,63689,1,20220130,143715670,"IJmuiden Dennekoplaan - Amsterdam Bijlmer ArenA",CXX,2367379,"Amsterdam, Station Bijlmer ArenA",1828327,"Haarlem, Station H",null,4.693774700164795,52.29030990600586,0.0,null,9822,"Hoofddorp, De Hoek",4.720146,52.290158,IN_TRANSIT_TO,PT29H4M,1643602031,PT29H4M,1643602031,31
1643602228,1861681,79830,1,20220130,143715940,"Nieuw-Vennep P+R Getsewoud Zuid - Amsterdam CS",CXX,2431360,"Amsterdam, Centraal Station",2437970,"Nieuw-Vennep, P+R Getsewoud Zuid",null,4.760223865509033,52.30952072143555,0.0,null,2749,"Hoofddorp, De Hoek",4.720146,52.290158,STOPPED_AT,PT29H14M,1643602477,PT29H14M,1643602477,39
1643602220,1861681,79847,1,20220130,143720668,"Haarlem Station - Amsterdam Bijlmer ArenA",CXX,2340430,"Amsterdam, Station Bijlmer ArenA",1828396,"Haarlem, Station",null,4.869431972503662,52.30384063720703,0.0,null,9803,"Hoofddorp, De Hoek",4.720146,52.290158,IN_TRANSIT_TO,PT29H32M,1643603528,PT29H32M,1643603547,28
1643602227,1861681,79854,1,20220130,143728269,"Nieuw-Vennep P+R Getsew - Amsterdam Elandsgracht",CXX,2314239,"Amsterdam, Busstation Elandsgracht",2437970,"Nieuw-Vennep, P+R Getsewoud Zuid",null,4.876527786254883,52.35490417480469,0.0,null,9352,"Hoofddorp, De Hoek",4.720146,52.290158,IN_TRANSIT_TO,PT29H41M,1643604029,PT29H41M,1643604049,31
1643602219,1861734,63689,0,20220130,143715669,"IJmuiden Dennekoplaan - Amsterdam Bijlmer ArenA",CXX,364790,"IJmuiden, Dennekoplaan",1928634,"Amsterdam, Station Bijlmer ArenA",null,4.83457088470459,52.30582809448242,0.0,null,9823,"Hoofddorp, De Hoek",4.720901,52.290602,IN_TRANSIT_TO,PT28H53M,1643601202,PT28H53M,1643601202,42
1643607320,1927008,32189,0,20220131,144733960,"Zuid-Beijerland-Heinenoord",CXX,2295759,"Zuid-Beijerland, R. van Dorplaan",1927008,"Heinenoord, Busstation",null,4.48330545425415,51.80797576904297,0.0,null,5882,"Heinenoord, Busstation",4.495493,51.814936,IN_TRANSIT_TO,PT6H39M,1643607476,PT6H39M,1643607476,19
1643602228,1999117,79830,1,20220130,143715940,"Nieuw-Vennep P+R Getsewoud Zuid - Amsterdam CS",CXX,2431360,"Amsterdam, Centraal Station",2437970,"Nieuw-Vennep, P+R Getsewoud Zuid",null,4.760223865509033,52.30952072143555,0.0,null,2749,"Amsterdam, Haarlemmermeerstation",4.857325,52.349012,STOPPED_AT,PT28H49M,1643601025,PT28H49M,1643601073,14
1643602227,1999117,79854,1,20220130,143728269,"Nieuw-Vennep P+R Getsew - Amsterdam Elandsgracht",CXX,2314239,"Amsterdam, Busstation Elandsgracht",2437970,"Nieuw-Vennep, P+R Getsewoud Zuid",null,4.876527786254883,52.35490417480469,0.0,null,9352,"Amsterdam, Haarlemmermeerstation",4.857325,52.349012,IN_TRANSIT_TO,PT29H15M,1643602381,PT29H15M,1643602518,9
1643607320,1999274,32189,0,20220131,144733960,"Zuid-Beijerland-Heinenoord",CXX,2295759,"Zuid-Beijerland, R. van Dorplaan",1927008,"Heinenoord, Busstation",null,4.48330545425415,51.80797576904297,0.0,null,5882,"Numansdorp, Proeftuinlaan",4.443177,51.750723,IN_TRANSIT_TO,PT6H24M,1643606648,PT6H24M,1643606648,13
1643602219,2032105,63689,0,20220130,143715669,"IJmuiden Dennekoplaan - Amsterdam Bijlmer ArenA",CXX,364790,"IJmuiden, Dennekoplaan",1928634,"Amsterdam, Station Bijlmer ArenA",null,4.83457088470459,52.30582809448242,0.0,null,9823,"Santpoort-Noord, Hagelingerweg",4.644075,52.433798,IN_TRANSIT_TO,PT28H14M,1643598682,PT28H14M,1643598700,10
1643602219,2032130,63689,0,20220130,143715669,"IJmuiden Dennekoplaan - Amsterdam Bijlmer ArenA",CXX,364790,"IJmuiden, Dennekoplaan",1928634,"Amsterdam, Station Bijlmer ArenA",null,4.83457088470459,52.30582809448242,0.0,null,9823,"IJmuiden, Scheldestraat",4.611709,52.457346,IN_TRANSIT_TO,PT28H5M,1643598220,PT28H5M,1643598237,3
1643602216,2066155,63689,1,20220130,143715668,"IJmuiden Dennekoplaan - Amsterdam Bijlmer ArenA",CXX,2367379,"Amsterdam, Station Bijlmer ArenA",435308,"IJmuiden, Dennekoplaan",null,4.6457295417785645,52.42985534667969,0.0,null,9816,"Schiphol, Airport",4.761288,52.308943,IN_TRANSIT_TO,PT28H29M,1643599897,PT28H29M,1643599927,25
1643602227,2066155,63689,1,20220130,143715670,"IJmuiden Dennekoplaan - Amsterdam Bijlmer ArenA",CXX,2367379,"Amsterdam, Station Bijlmer ArenA",1828327,"Haarlem, Station H",null,4.693774700164795,52.29030990600586,0.0,null,9822,"Schiphol, Airport",4.761288,52.308943,IN_TRANSIT_TO,PT28H59M,1643601699,PT28H59M,1643601753,25
1643602220,2066155,79847,1,20220130,143720668,"Haarlem Station - Amsterdam Bijlmer ArenA",CXX,2340430,"Amsterdam, Station Bijlmer ArenA",1828396,"Haarlem, Station",null,4.869431972503662,52.30384063720703,0.0,null,9803,"Schiphol, Airport",4.761288,52.308943,IN_TRANSIT_TO,PT29H27M,1643603181,PT29H27M,1643603247,22
1643602228,2066174,79830,1,20220130,143715940,"Nieuw-Vennep P+R Getsewoud Zuid - Amsterdam CS",CXX,2431360,"Amsterdam, Centraal Station",2437970,"Nieuw-Vennep, P+R Getsewoud Zuid",null,4.760223865509033,52.30952072143555,0.0,null,2749,"Amsterdam, Olympisch Stadion",4.856606,52.344102,STOPPED_AT,PT28H51M,1643601184,PT28H51M,1643601184,16
1643602227,2066174,79854,1,20220130,143728269,"Nieuw-Vennep P+R Getsew - Amsterdam Elandsgracht",CXX,2314239,"Amsterdam, Busstation Elandsgracht",2437970,"Nieuw-Vennep, P+R Getsewoud Zuid",null,4.876527786254883,52.35490417480469,0.0,null,9352,"Amsterdam, Olympisch Stadion",4.856606,52.344102,IN_TRANSIT_TO,PT29H17M,1643602587,PT29H17M,1643602587,11
1643607316,2295759,32189,0,20220131,144733962,"Zuid-Beijerland-Heinenoord",CXX,2295759,"Zuid-Beijerland, R. van Dorplaan",1927008,"Heinenoord, Busstation",null,4.399860858917236,51.73744201660156,0.0,null,5850,"Zuid-Beijerland, R. van Dorplaan",4.368849,51.753481,IN_TRANSIT_TO,PT6H28M,0,PT6H28M,1643606896,0
1643607320,2295759,32189,0,20220131,144733960,"Zuid-Beijerland-Heinenoord",CXX,2295759,"Zuid-Beijerland, R. van Dorplaan",1927008,"Heinenoord, Busstation",null,4.48330545425415,51.80797576904297,0.0,null,5882,"Zuid-Beijerland, R. van Dorplaan",4.368849,51.753481,IN_TRANSIT_TO,PT5H58M,0,PT5H58M,1643605165,0
1643607320,2295765,32189,0,20220131,144733960,"Zuid-Beijerland-Heinenoord",CXX,2295759,"Zuid-Beijerland, R. van Dorplaan",1927008,"Heinenoord, Busstation",null,4.48330545425415,51.80797576904297,0.0,null,5882,"Zuid-Beijerland, Dorpsstraat",4.378985,51.749029,IN_TRANSIT_TO,PT6H1M,1643605365,PT6H1M,1643605365,3
1643607316,2295765,32189,0,20220131,144733962,"Zuid-Beijerland-Heinenoord",CXX,2295759,"Zuid-Beijerland, R. van Dorplaan",1927008,"Heinenoord, Busstation",null,4.399860858917236,51.73744201660156,0.0,null,5850,"Zuid-Beijerland, Dorpsstraat",4.378985,51.749029,IN_TRANSIT_TO,PT6H31M,1643607154,PT6H31M,1643607154,3
1643607320,2295767,32189,0,20220131,144733960,"Zuid-Beijerland-Heinenoord",CXX,2295759,"Zuid-Beijerland, R. van Dorplaan",1927008,"Heinenoord, Busstation",null,4.48330545425415,51.80797576904297,0.0,null,5882,"Zuid-Beijerland, 't Scheidt",4.38902,51.740566,IN_TRANSIT_TO,PT6H4M,1643605480,PT6H4M,1643605480,4
1643607316,2295767,32189,0,20220131,144733962,"Zuid-Beijerland-Heinenoord",CXX,2295759,"Zuid-Beijerland, R. van Dorplaan",1927008,"Heinenoord, Busstation",null,4.399860858917236,51.73744201660156,0.0,null,5850,"Zuid-Beijerland, 't Scheidt",4.38902,51.740566,IN_TRANSIT_TO,PT6H34M,1643607271,PT6H34M,1643607271,4
1643602216,2295997,63689,1,20220130,143715668,"IJmuiden Dennekoplaan - Amsterdam Bijlmer ArenA",CXX,2367379,"Amsterdam, Station Bijlmer ArenA",435308,"IJmuiden, Dennekoplaan",null,4.6457295417785645,52.42985534667969,0.0,null,9816,"Driehuis, van den Vondellaan",4.639368,52.445246,IN_TRANSIT_TO,PT29H15M,1643602462,PT29H15M,1643602500,64
1643602219,2295998,63689,0,20220130,143715669,"IJmuiden Dennekoplaan - Amsterdam Bijlmer ArenA",CXX,364790,"IJmuiden, Dennekoplaan",1928634,"Amsterdam, Station Bijlmer ArenA",null,4.83457088470459,52.30582809448242,0.0,null,9823,"Driehuis, van den Vondellaan",4.638946,52.444938,IN_TRANSIT_TO,PT28H11M,1643598566,PT28H11M,1643598660,9
1643602219,2305331,63689,0,20220130,143715669,"IJmuiden Dennekoplaan - Amsterdam Bijlmer ArenA",CXX,364790,"IJmuiden, Dennekoplaan",1928634,"Amsterdam, Station Bijlmer ArenA",null,4.83457088470459,52.30582809448242,0.0,null,9823,"Hoofddorp, Spaarne Gasthuis",4.654267,52.324434,IN_TRANSIT_TO,PT28H42M,1643600469,PT28H42M,1643600532,29
1643602227,2314239,79854,1,20220130,143728269,"Nieuw-Vennep P+R Getsew - Amsterdam Elandsgracht",CXX,2314239,"Amsterdam, Busstation Elandsgracht",2437970,"Nieuw-Vennep, P+R Getsewoud Zuid",null,4.876527786254883,52.35490417480469,0.0,null,9352,"Amsterdam, Busstation Elandsgracht",4.87685,52.368979,IN_TRANSIT_TO,PT29H4M,0,PT29H4M,1643601855,0
1643602228,2327620,79830,1,20220130,143715940,"Nieuw-Vennep P+R Getsewoud Zuid - Amsterdam CS",CXX,2431360,"Amsterdam, Centraal Station",2437970,"Nieuw-Vennep, P+R Getsewoud Zuid",null,4.760223865509033,52.30952072143555,0.0,null,2749,"Schiphol, Airport",4.760224,52.309521,STOPPED_AT,PT29H10M,1643602183,PT29H10M,1643602229,33
1643602227,2327620,79854,1,20220130,143728269,"Nieuw-Vennep P+R Getsew - Amsterdam Elandsgracht",CXX,2314239,"Amsterdam, Busstation Elandsgracht",2437970,"Nieuw-Vennep, P+R Getsewoud Zuid",null,4.876527786254883,52.35490417480469,0.0,null,9352,"Schiphol, Airport",4.760224,52.309521,IN_TRANSIT_TO,PT29H35M,1643603616,PT29H35M,1643603727,25
1643602220,2340430,79847,1,20220130,143720668,"Haarlem Station - Amsterdam Bijlmer ArenA",CXX,2340430,"Amsterdam, Station Bijlmer ArenA",1828396,"Haarlem, Station",null,4.869431972503662,52.30384063720703,0.0,null,9803,"Amsterdam, Station Bijlmer ArenA",4.94737,52.311615,IN_TRANSIT_TO,PT29H,0,PT29H,1643601637,0
1643607320,2344379,32189,0,20220131,144733960,"Zuid-Beijerland-Heinenoord",CXX,2295759,"Zuid-Beijerland, R. van Dorplaan",1927008,"Heinenoord, Busstation",null,4.48330545425415,51.80797576904297,0.0,null,5882,"Numansdorp, Molendijk",4.423252,51.726147,IN_TRANSIT_TO,PT6H14M,1643606020,PT6H14M,1643606020,7
1643602216,2345246,63689,1,20220130,143715668,"IJmuiden Dennekoplaan - Amsterdam Bijlmer ArenA",CXX,2367379,"Amsterdam, Station Bijlmer ArenA",435308,"IJmuiden, Dennekoplaan",null,4.6457295417785645,52.42985534667969,0.0,null,9816,"Schiphol, Knooppunt Schiphol Noord",4.792652,52.322218,IN_TRANSIT_TO,PT28H22M,1643599365,PT28H22M,1643599394,20
1643602227,2345246,63689,1,20220130,143715670,"IJmuiden Dennekoplaan - Amsterdam Bijlmer ArenA",CXX,2367379,"Amsterdam, Station Bijlmer ArenA",1828327,"Haarlem, Station H",null,4.693774700164795,52.29030990600586,0.0,null,9822,"Schiphol, Knooppunt Schiphol Noord",4.792652,52.322218,IN_TRANSIT_TO,PT28H52M,1643601206,PT28H52M,1643601239,20
1643602228,2345246,79830,1,20220130,143715940,"Nieuw-Vennep P+R Getsewoud Zuid - Amsterdam CS",CXX,2431360,"Amsterdam, Centraal Station",2437970,"Nieuw-Vennep, P+R Getsewoud Zuid",null,4.760223865509033,52.30952072143555,0.0,null,2749,"Schiphol, Knooppunt Schiphol Noord",4.792652,52.322218,STOPPED_AT,PT29H1M,1643601743,PT29H1M,1643601769,27
1643602220,2345246,79847,1,20220130,143720668,"Haarlem Station - Amsterdam Bijlmer ArenA",CXX,2340430,"Amsterdam, Station Bijlmer ArenA",1828396,"Haarlem, Station",null,4.869431972503662,52.30384063720703,0.0,null,9803,"Schiphol, Knooppunt Schiphol Noord",4.792652,52.322218,IN_TRANSIT_TO,PT29H19M,1643602786,PT29H19M,1643602827,19
1643602227,2345246,79854,1,20220130,143728269,"Nieuw-Vennep P+R Getsew - Amsterdam Elandsgracht",CXX,2314239,"Amsterdam, Busstation Elandsgracht",2437970,"Nieuw-Vennep, P+R Getsewoud Zuid",null,4.876527786254883,52.35490417480469,0.0,null,9352,"Schiphol, Knooppunt Schiphol Noord",4.792652,52.322218,IN_TRANSIT_TO,PT29H28M,1643603234,PT29H28M,1643603298,22
1643602219,2345250,63689,0,20220130,143715669,"IJmuiden Dennekoplaan - Amsterdam Bijlmer ArenA",CXX,364790,"IJmuiden, Dennekoplaan",1928634,"Amsterdam, Station Bijlmer ArenA",null,4.83457088470459,52.30582809448242,0.0,null,9823,"Schiphol, Knooppunt Schiphol Noord",4.792563,52.322271,IN_TRANSIT_TO,PT29H6M,1643601919,PT29H6M,1643601977,54
1643607320,2345267,32189,0,20220131,144733960,"Zuid-Beijerland-Heinenoord",CXX,2295759,"Zuid-Beijerland, R. van Dorplaan",1927008,"Heinenoord, Busstation",null,4.48330545425415,51.80797576904297,0.0,null,5882,"Numansdorp, Viaduct A29",4.412249,51.732312,IN_TRANSIT_TO,PT6H7M,1643605587,PT6H12M,1643605944,6
1643607316,2345267,32189,0,20220131,144733962,"Zuid-Beijerland-Heinenoord",CXX,2295759,"Zuid-Beijerland, R. van Dorplaan",1927008,"Heinenoord, Busstation",null,4.399860858917236,51.73744201660156,0.0,null,5850,"Numansdorp, Viaduct A29",4.412249,51.732312,IN_TRANSIT_TO,PT6H37M,1643607420,PT6H42M,1643607720,6
1643602216,2367379,63689,1,20220130,143715668,"IJmuiden Dennekoplaan - Amsterdam Bijlmer ArenA",CXX,2367379,"Amsterdam, Station Bijlmer ArenA",435308,"IJmuiden, Dennekoplaan",null,4.6457295417785645,52.42985534667969,0.0,null,9816,"Amsterdam, Station Bijlmer ArenA",4.947459,52.311525,IN_TRANSIT_TO,PT28H4M,0,PT28H4M,1643598280,0
1643602227,2367379,63689,1,20220130,143715670,"IJmuiden Dennekoplaan - Amsterdam Bijlmer ArenA",CXX,2367379,"Amsterdam, Station Bijlmer ArenA",1828327,"Haarlem, Station H",null,4.693774700164795,52.29030990600586,0.0,null,9822,"Amsterdam, Station Bijlmer ArenA",4.947459,52.311525,IN_TRANSIT_TO,PT28H34M,0,PT28H34M,1643600054,0
1643602219,2402531,63689,0,20220130,143715669,"IJmuiden Dennekoplaan - Amsterdam Bijlmer ArenA",CXX,364790,"IJmuiden, Dennekoplaan",1928634,"Amsterdam, Station Bijlmer ArenA",null,4.83457088470459,52.30582809448242,0.0,null,9823,"IJmuiden, Marktplein",4.616361,52.457996,IN_TRANSIT_TO,PT28H6M,1643598265,PT28H6M,1643598265,4
1643602220,2402536,79847,1,20220130,143720668,"Haarlem Station - Amsterdam Bijlmer ArenA",CXX,2340430,"Amsterdam, Station Bijlmer ArenA",1828396,"Haarlem, Station",null,4.869431972503662,52.30384063720703,0.0,null,9803,"Vijfhuizen, Expo Haarlemmermeer",4.678871,52.342524,IN_TRANSIT_TO,PT29H48M,1643604481,PT29H48M,1643604481,42
1643602227,2402556,79854,1,20220130,143728269,"Nieuw-Vennep P+R Getsew - Amsterdam Elandsgracht",CXX,2314239,"Amsterdam, Busstation Elandsgracht",2437970,"Nieuw-Vennep, P+R Getsewoud Zuid",null,4.876527786254883,52.35490417480469,0.0,null,9352,"Nieuw-Vennep, Getsewoud Noord",4.62941,52.275877,IN_TRANSIT_TO,PT29H53M,1643604758,PT29H53M,1643604774,43
1643602219,2402601,63689,0,20220130,143715669,"IJmuiden Dennekoplaan - Amsterdam Bijlmer ArenA",CXX,364790,"IJmuiden, Dennekoplaan",1928634,"Amsterdam, Station Bijlmer ArenA",null,4.83457088470459,52.30582809448242,0.0,null,9823,"Schiphol, Airport",4.761286,52.309069,IN_TRANSIT_TO,PT28H59M,1643601494,PT28H59M,1643601550,48
1643607320,2402937,32189,0,20220131,144733960,"Zuid-Beijerland-Heinenoord",CXX,2295759,"Zuid-Beijerland, R. van Dorplaan",1927008,"Heinenoord, Busstation",null,4.48330545425415,51.80797576904297,0.0,null,5882,"Numansdorp, Hallinxweg",4.43872,51.733968,IN_TRANSIT_TO,PT6H21M,1643606432,PT6H21M,1643606451,10
1643607320,2402939,32189,0,20220131,144733960,"Zuid-Beijerland-Heinenoord",CXX,2295759,"Zuid-Beijerland, R. van Dorplaan",1927008,"Heinenoord, Busstation",null,4.48330545425415,51.80797576904297,0.0,null,5882,"Numansdorp, Torensteepolder",4.439544,51.725066,IN_TRANSIT_TO,PT6H16M,1643606169,PT6H16M,1643606169,8
1643607326,2402940,32189,1,20220131,144733959,"Zuid-Beijerland-Heinenoord",CXX,504749,"Heinenoord, Busstation",2295759,"Zuid-Beijerland, R. van Dorplaan",null,4.43951416015625,51.73754119873047,0.0,null,5885,"Numansdorp, Fortlaan",4.437314,51.726478,IN_TRANSIT_TO,PT6H40M,1643607585,PT6H40M,1643607585,12
1643607320,2402942,32189,0,20220131,144733960,"Zuid-Beijerland-Heinenoord",CXX,2295759,"Zuid-Beijerland, R. van Dorplaan",1927008,"Heinenoord, Busstation",null,4.48330545425415,51.80797576904297,0.0,null,5882,"Zuid-Beijerland, Oldenbarneveltstraat",4.3668,51.752465,IN_TRANSIT_TO,PT5H59M,1643605198,PT5H59M,1643605198,1
1643607316,2402942,32189,0,20220131,144733962,"Zuid-Beijerland-Heinenoord",CXX,2295759,"Zuid-Beijerland, R. van Dorplaan",1927008,"Heinenoord, Busstation",null,4.399860858917236,51.73744201660156,0.0,null,5850,"Zuid-Beijerland, Oldenbarneveltstraat",4.3668,51.752465,IN_TRANSIT_TO,PT6H29M,1643606953,PT6H29M,1643606953,1
1643607320,2402943,32189,0,20220131,144733960,"Zuid-Beijerland-Heinenoord",CXX,2295759,"Zuid-Beijerland, R. van Dorplaan",1927008,"Heinenoord, Busstation",null,4.48330545425415,51.80797576904297,0.0,null,5882,"Zuid-Beijerland, Gravin Sabinastraat",4.370038,51.750813,IN_TRANSIT_TO,PT5H59M,1643605250,PT5H59M,1643605277,2
1643607316,2402943,32189,0,20220131,144733962,"Zuid-Beijerland-Heinenoord",CXX,2295759,"Zuid-Beijerland, R. van Dorplaan",1927008,"Heinenoord, Busstation",null,4.399860858917236,51.73744201660156,0.0,null,5850,"Zuid-Beijerland, Gravin Sabinastraat",4.370038,51.750813,IN_TRANSIT_TO,PT6H29M,1643607023,PT6H29M,1643607050,2
1643607320,2402944,32189,0,20220131,144733960,"Zuid-Beijerland-Heinenoord",CXX,2295759,"Zuid-Beijerland, R. van Dorplaan",1927008,"Heinenoord, Busstation",null,4.48330545425415,51.80797576904297,0.0,null,5882,"Klaaswaal, Rijksstraatweg",4.443914,51.766019,IN_TRANSIT_TO,PT6H26M,1643606751,PT6H26M,1643606751,15
1643607320,2402946,32189,0,20220131,144733960,"Zuid-Beijerland-Heinenoord",CXX,2295759,"Zuid-Beijerland, R. van Dorplaan",1927008,"Heinenoord, Busstation",null,4.48330545425415,51.80797576904297,0.0,null,5882,"Westmaas, Provincialeweg",4.47227,51.791566,IN_TRANSIT_TO,PT6H33M,1643607137,PT6H33M,1643607153,17
1643607326,2402948,32189,1,20220131,144733959,"Zuid-Beijerland-Heinenoord",CXX,504749,"Heinenoord, Busstation",2295759,"Zuid-Beijerland, R. van Dorplaan",null,4.43951416015625,51.73754119873047,0.0,null,5885,"Westmaas, Provincialeweg",4.471116,51.790541,IN_TRANSIT_TO,PT6H24M,1643606569,PT6H24M,1643606569,3
1643602219,2419243,63689,0,20220130,143715669,"IJmuiden Dennekoplaan - Amsterdam Bijlmer ArenA",CXX,364790,"IJmuiden, Dennekoplaan",1928634,"Amsterdam, Station Bijlmer ArenA",null,4.83457088470459,52.30582809448242,0.0,null,9823,"Amstelveen, Busstation",4.85837,52.301948,IN_TRANSIT_TO,PT29H13M,1643602380,PT29H13M,1643602380,60
1643602216,2419244,63689,1,20220130,143715668,"IJmuiden Dennekoplaan - Amsterdam Bijlmer ArenA",CXX,2367379,"Amsterdam, Station Bijlmer ArenA",435308,"IJmuiden, Dennekoplaan",null,4.6457295417785645,52.42985534667969,0.0,null,9816,"Amstelveen, Busstation",4.858413,52.302029,IN_TRANSIT_TO,PT28H15M,1643598982,PT28H15M,1643599042,14
1643602227,2419244,63689,1,20220130,143715670,"IJmuiden Dennekoplaan - Amsterdam Bijlmer ArenA",CXX,2367379,"Amsterdam, Station Bijlmer ArenA",1828327,"Haarlem, Station H",null,4.693774700164795,52.29030990600586,0.0,null,9822,"Amstelveen, Busstation",4.858413,52.302029,IN_TRANSIT_TO,PT28H45M,1643600774,PT28H45M,1643600799,14
1643602220,2419244,79847,1,20220130,143720668,"Haarlem Station - Amsterdam Bijlmer ArenA",CXX,2340430,"Amsterdam, Station Bijlmer ArenA",1828396,"Haarlem, Station",null,4.869431972503662,52.30384063720703,0.0,null,9803,"Amstelveen, Busstation",4.858413,52.302029,IN_TRANSIT_TO,PT29H12M,1643602344,PT29H12M,1643602387,13
1643602228,2427910,79830,1,20220130,143715940,"Nieuw-Vennep P+R Getsewoud Zuid - Amsterdam CS",CXX,2431360,"Amsterdam, Centraal Station",2437970,"Nieuw-Vennep, P+R Getsewoud Zuid",null,4.760223865509033,52.30952072143555,0.0,null,2749,"Amsterdam, Leidseplein",4.881056,52.363281,STOPPED_AT,PT28H42M,1643600541,PT28H42M,1643600583,8
1643602227,2427911,79854,1,20220130,143728269,"Nieuw-Vennep P+R Getsew - Amsterdam Elandsgracht",CXX,2314239,"Amsterdam, Busstation Elandsgracht",2437970,"Nieuw-Vennep, P+R Getsewoud Zuid",null,4.876527786254883,52.35490417480469,0.0,null,9352,"Amsterdam, Leidseplein",4.88119,52.36187,IN_TRANSIT_TO,PT29H7M,1643601959,PT29H7M,1643602039,3
1643602228,2427915,79830,1,20220130,143715940,"Nieuw-Vennep P+R Getsewoud Zuid - Amsterdam CS",CXX,2431360,"Amsterdam, Centraal Station",2437970,"Nieuw-Vennep, P+R Getsewoud Zuid",null,4.760223865509033,52.30952072143555,0.0,null,2749,"Amsterdam, Elandsgracht",4.878269,52.368158,STOPPED_AT,PT28H40M,1643600417,PT28H40M,1643600473,5
1643602228,2431360,79830,1,20220130,143715940,"Nieuw-Vennep P+R Getsewoud Zuid - Amsterdam CS",CXX,2431360,"Amsterdam, Centraal Station",2437970,"Nieuw-Vennep, P+R Getsewoud Zuid",null,4.760223865509033,52.30952072143555,0.0,null,2749,"Amsterdam, Centraal Station",4.901404,52.379445,STOPPED_AT,PT28H31M,0,PT28H31M,1643599926,0
1643602227,2437970,79854,1,20220130,143728269,"Nieuw-Vennep P+R Getsew - Amsterdam Elandsgracht",CXX,2314239,"Amsterdam, Busstation Elandsgracht",2437970,"Nieuw-Vennep, P+R Getsewoud Zuid",null,4.876527786254883,52.35490417480469,0.0,null,9352,"Nieuw-Vennep, P+R Getsewoud Zuid",4.606468,52.259792,IN_TRANSIT_TO,PT30H,1643604982,PT30H,1643604982,49
1643602228,2439860,79830,1,20220130,143715940,"Nieuw-Vennep P+R Getsewoud Zuid - Amsterdam CS",CXX,2431360,"Amsterdam, Centraal Station",2437970,"Nieuw-Vennep, P+R Getsewoud Zuid",null,4.760223865509033,52.30952072143555,0.0,null,2749,"Amsterdam, Museumplein",4.881134,52.358985,STOPPED_AT,PT28H44M,1643600673,PT28H44M,1643600673,9
1643602227,2439860,79854,1,20220130,143728269,"Nieuw-Vennep P+R Getsew - Amsterdam Elandsgracht",CXX,2314239,"Amsterdam, Busstation Elandsgracht",2437970,"Nieuw-Vennep, P+R Getsewoud Zuid",null,4.876527786254883,52.35490417480469,0.0,null,9352,"Amsterdam, Museumplein",4.881134,52.358985,IN_TRANSIT_TO,PT29H8M,1643602103,PT29H8M,1643602103,4
1643602228,2439862,79830,1,20220130,143715940,"Nieuw-Vennep P+R Getsewoud Zuid - Amsterdam CS",CXX,2431360,"Amsterdam, Centraal Station",2437970,"Nieuw-Vennep, P+R Getsewoud Zuid",null,4.760223865509033,52.30952072143555,0.0,null,2749,"Amsterdam, Concertgebouw",4.878486,52.355657,STOPPED_AT,PT28H45M,1643600785,PT28H45M,1643600836,10
1643602227,2439862,79854,1,20220130,143728269,"Nieuw-Vennep P+R Getsew - Amsterdam Elandsgracht",CXX,2314239,"Amsterdam, Busstation Elandsgracht",2437970,"Nieuw-Vennep, P+R Getsewoud Zuid",null,4.876527786254883,52.35490417480469,0.0,null,9352,"Amsterdam, Concertgebouw",4.878486,52.355657,IN_TRANSIT_TO,PT29H10M,1643602192,PT29H10M,1643602212,5
1643602228,2441638,79830,1,20220130,143715940,"Nieuw-Vennep P+R Getsewoud Zuid - Amsterdam CS",CXX,2431360,"Amsterdam, Centraal Station",2437970,"Nieuw-Vennep, P+R Getsewoud Zuid",null,4.760223865509033,52.30952072143555,0.0,null,2749,"Amsterdam, Emmastraat",4.870176,52.353329,STOPPED_AT,PT28H46M,1643600899,PT28H46M,1643600922,12
1643602227,2441638,79854,1,20220130,143728269,"Nieuw-Vennep P+R Getsew - Amsterdam Elandsgracht",CXX,2314239,"Amsterdam, Busstation Elandsgracht",2437970,"Nieuw-Vennep, P+R Getsewoud Zuid",null,4.876527786254883,52.35490417480469,0.0,null,9352,"Amsterdam, Emmastraat",4.870176,52.353329,IN_TRANSIT_TO,PT29H12M,1643602273,PT29H12M,1643602273,7
1643602216,2441643,63689,1,20220130,143715668,"IJmuiden Dennekoplaan - Amsterdam Bijlmer ArenA",CXX,2367379,"Amsterdam, Station Bijlmer ArenA",435308,"IJmuiden, Dennekoplaan",null,4.6457295417785645,52.42985534667969,0.0,null,9816,"Ouderkerk a/d Amstel, Ouderkerk Oost",4.91075,52.2996,IN_TRANSIT_TO,PT28H8M,1643598589,PT28H8M,1643598589,8
1643602227,2441643,63689,1,20220130,143715670,"IJmuiden Dennekoplaan - Amsterdam Bijlmer ArenA",CXX,2367379,"Amsterdam, Station Bijlmer ArenA",1828327,"Haarlem, Station H",null,4.693774700164795,52.29030990600586,0.0,null,9822,"Ouderkerk a/d Amstel, Ouderkerk Oost",4.91075,52.2996,IN_TRANSIT_TO,PT28H38M,1643600371,PT28H38M,1643600397,8
1643602220,2441643,79847,1,20220130,143720668,"Haarlem Station - Amsterdam Bijlmer ArenA",CXX,2340430,"Amsterdam, Station Bijlmer ArenA",1828396,"Haarlem, Station",null,4.869431972503662,52.30384063720703,0.0,null,9803,"Ouderkerk a/d Amstel, Ouderkerk Oost",4.91075,52.2996,IN_TRANSIT_TO,PT29H5M,1643601923,PT29H5M,1643601947,8
1643602216,354979,63689,1,20220130,143715668,"IJmuiden Dennekoplaan - Amsterdam Bijlmer ArenA",CXX,2367379,"Amsterdam, Station Bijlmer ArenA",435308,"IJmuiden, Dennekoplaan",null,4.6457295417785645,52.42985534667969,0.0,null,9816,"Haarlem, Europaweg",4.647543,52.367921,IN_TRANSIT_TO,PT28H53M,1643601256,PT28H53M,1643601256,49
1643602220,354979,79847,1,20220130,143720668,"Haarlem Station - Amsterdam Bijlmer ArenA",CXX,2340430,"Amsterdam, Station Bijlmer ArenA",1828396,"Haarlem, Station",null,4.869431972503662,52.30384063720703,0.0,null,9803,"Haarlem, Europaweg",4.647543,52.367921,IN_TRANSIT_TO,PT29H54M,1643604820,PT29H54M,1643604820,48
1643602219,356467,63689,0,20220130,143715669,"IJmuiden Dennekoplaan - Amsterdam Bijlmer ArenA",CXX,364790,"IJmuiden, Dennekoplaan",1928634,"Amsterdam, Station Bijlmer ArenA",null,4.83457088470459,52.30582809448242,0.0,null,9823,"Hoofddorp, Bornholm",4.667723,52.309687,IN_TRANSIT_TO,PT28H45M,1643600723,PT28H45M,1643600751,33
1643602216,356602,63689,1,20220130,143715668,"IJmuiden Dennekoplaan - Amsterdam Bijlmer ArenA",CXX,2367379,"Amsterdam, Station Bijlmer ArenA",435308,"IJmuiden, Dennekoplaan",null,4.6457295417785645,52.42985534667969,0.0,null,9816,"Vijfhuizen, Vijfhuizen",4.676456,52.344882,IN_TRANSIT_TO,PT28H48M,1643600971,PT28H48M,1643600971,44
1643602227,356602,63689,1,20220130,143715670,"IJmuiden Dennekoplaan - Amsterdam Bijlmer ArenA",CXX,2367379,"Amsterdam, Station Bijlmer ArenA",1828327,"Haarlem, Station H",null,4.693774700164795,52.29030990600586,0.0,null,9822,"Vijfhuizen, Vijfhuizen",4.676456,52.344882,IN_TRANSIT_TO,PT29H18M,1643602714,PT29H18M,1643602714,44
1643602220,356602,79847,1,20220130,143720668,"Haarlem Station - Amsterdam Bijlmer ArenA",CXX,2340430,"Amsterdam, Station Bijlmer ArenA",1828396,"Haarlem, Station",null,4.869431972503662,52.30384063720703,0.0,null,9803,"Vijfhuizen, Vijfhuizen",4.676456,52.344882,IN_TRANSIT_TO,PT29H48M,1643604516,PT29H48M,1643604534,43
1643602216,358807,63689,1,20220130,143715668,"IJmuiden Dennekoplaan - Amsterdam Bijlmer ArenA",CXX,2367379,"Amsterdam, Station Bijlmer ArenA",435308,"IJmuiden, Dennekoplaan",null,4.6457295417785645,52.42985534667969,0.0,null,9816,"Haarlem, Centrum/Verwulft",4.63256,52.380401,IN_TRANSIT_TO,PT28H57M,1643601484,PT28H57M,1643601484,52
1643602220,358807,79847,1,20220130,143720668,"Haarlem Station - Amsterdam Bijlmer ArenA",CXX,2340430,"Amsterdam, Station Bijlmer ArenA",1828396,"Haarlem, Station",null,4.869431972503662,52.30384063720703,0.0,null,9803,"Haarlem, Centrum/Verwulft",4.63256,52.380401,IN_TRANSIT_TO,PT29H59M,1643605048,PT29H59M,1643605048,51
1643602219,359311,63689,0,20220130,143715669,"IJmuiden Dennekoplaan - Amsterdam Bijlmer ArenA",CXX,364790,"IJmuiden, Dennekoplaan",1928634,"Amsterdam, Station Bijlmer ArenA",null,4.83457088470459,52.30582809448242,0.0,null,9823,"Hoofddorp, Graan voor Visch",4.684012,52.294973,IN_TRANSIT_TO,PT28H49M,1643600927,PT28H49M,1643600943,36
1643602219,360579,63689,0,20220130,143715669,"IJmuiden Dennekoplaan - Amsterdam Bijlmer ArenA",CXX,364790,"IJmuiden, Dennekoplaan",1928634,"Amsterdam, Station Bijlmer ArenA",null,4.83457088470459,52.30582809448242,0.0,null,9823,"Haarlem, Minahassastraat",4.65033,52.408779,IN_TRANSIT_TO,PT28H19M,1643599107,PT28H19M,1643599107,12
1643602216,360836,63689,1,20220130,143715668,"IJmuiden Dennekoplaan - Amsterdam Bijlmer ArenA",CXX,2367379,"Amsterdam, Station Bijlmer ArenA",435308,"IJmuiden, Dennekoplaan",null,4.6457295417785645,52.42985534667969,0.0,null,9816,"Hoofddorp, Bornholm",4.668448,52.310168,IN_TRANSIT_TO,PT28H41M,1643600556,PT28H41M,1643600556,39
1643602227,360836,63689,1,20220130,143715670,"IJmuiden Dennekoplaan - Amsterdam Bijlmer ArenA",CXX,2367379,"Amsterdam, Station Bijlmer ArenA",1828327,"Haarlem, Station H",null,4.693774700164795,52.29030990600586,0.0,null,9822,"Hoofddorp, Bornholm",4.668448,52.310168,IN_TRANSIT_TO,PT29H11M,1643602445,PT29H11M,1643602445,39
1643602220,360836,79847,1,20220130,143720668,"Haarlem Station - Amsterdam Bijlmer ArenA",CXX,2340430,"Amsterdam, Station Bijlmer ArenA",1828396,"Haarlem, Station",null,4.869431972503662,52.30384063720703,0.0,null,9803,"Hoofddorp, Bornholm",4.668448,52.310168,IN_TRANSIT_TO,PT29H40M,1643604001,PT29H40M,1643604020,36
1643602216,361764,63689,1,20220130,143715668,"IJmuiden Dennekoplaan - Amsterdam Bijlmer ArenA",CXX,2367379,"Amsterdam, Station Bijlmer ArenA",435308,"IJmuiden, Dennekoplaan",null,4.6457295417785645,52.42985534667969,0.0,null,9816,"Amstelveen, Oranjebaan",4.87093,52.303594,IN_TRANSIT_TO,PT28H11M,1643598819,PT28H11M,1643598864,12
1643602227,361764,63689,1,20220130,143715670,"IJmuiden Dennekoplaan - Amsterdam Bijlmer ArenA",CXX,2367379,"Amsterdam, Station Bijlmer ArenA",1828327,"Haarlem, Station H",null,4.693774700164795,52.29030990600586,0.0,null,9822,"Amstelveen, Oranjebaan",4.87093,52.303594,IN_TRANSIT_TO,PT28H41M,1643600609,PT28H41M,1643600642,12
1643602220,361764,79847,1,20220130,143720668,"Haarlem Station - Amsterdam Bijlmer ArenA",CXX,2340430,"Amsterdam, Station Bijlmer ArenA",1828396,"Haarlem, Station",null,4.869431972503662,52.30384063720703,0.0,null,9803,"Amstelveen, Oranjebaan",4.87093,52.303594,IN_TRANSIT_TO,PT29H9M,1643602183,PT29H9M,1643602205,11
1643602219,363470,63689,0,20220130,143715669,"IJmuiden Dennekoplaan - Amsterdam Bijlmer ArenA",CXX,364790,"IJmuiden, Dennekoplaan",1928634,"Amsterdam, Station Bijlmer ArenA",null,4.83457088470459,52.30582809448242,0.0,null,9823,"Vijfhuizen, Vijfhuizen",4.676906,52.344319,IN_TRANSIT_TO,PT28H38M,1643600275,PT28H38M,1643600275,28
1643602219,364790,63689,0,20220130,143715669,"IJmuiden Dennekoplaan - Amsterdam Bijlmer ArenA",CXX,364790,"IJmuiden, Dennekoplaan",1928634,"Amsterdam, Station Bijlmer ArenA",null,4.83457088470459,52.30582809448242,0.0,null,9823,"IJmuiden, Dennekoplaan",4.589754,52.449354,IN_TRANSIT_TO,PT28H,0,PT28H,1643598021,0
1643602219,365243,63689,0,20220130,143715669,"IJmuiden Dennekoplaan - Amsterdam Bijlmer ArenA",CXX,364790,"IJmuiden, Dennekoplaan",1928634,"Amsterdam, Station Bijlmer ArenA",null,4.83457088470459,52.30582809448242,0.0,null,9823,"Haarlem, Centrum/Verwulft",4.632642,52.37988,IN_TRANSIT_TO,PT28H28M,1643599719,PT28H28M,1643599719,18
1643602228,365351,79830,1,20220130,143715940,"Nieuw-Vennep P+R Getsewoud Zuid - Amsterdam CS",CXX,2431360,"Amsterdam, Centraal Station",2437970,"Nieuw-Vennep, P+R Getsewoud Zuid",null,4.760223865509033,52.30952072143555,0.0,null,2749,"Amsterdam, Dam",4.891223,52.374433,STOPPED_AT,PT28H35M,1643600147,PT28H35M,1643600147,2
1643602228,365890,79830,1,20220130,143715940,"Nieuw-Vennep P+R Getsewoud Zuid - Amsterdam CS",CXX,2431360,"Amsterdam, Centraal Station",2437970,"Nieuw-Vennep, P+R Getsewoud Zuid",null,4.760223865509033,52.30952072143555,0.0,null,2749,"Amsterdam, Westermarkt",4.883605,52.374122,STOPPED_AT,PT28H37M,1643600263,PT28H37M,1643600263,3
1643602219,365982,63689,0,20220130,143715669,"IJmuiden Dennekoplaan - Amsterdam Bijlmer ArenA",CXX,364790,"IJmuiden, Dennekoplaan",1928634,"Amsterdam, Station Bijlmer ArenA",null,4.83457088470459,52.30582809448242,0.0,null,9823,"Haarlem, Europaweg",4.64644,52.368049,IN_TRANSIT_TO,PT28H32M,1643599900,PT28H32M,1643599900,22
1643602216,366191,63689,1,20220130,143715668,"IJmuiden Dennekoplaan - Amsterdam Bijlmer ArenA",CXX,2367379,"Amsterdam, Station Bijlmer ArenA",435308,"IJmuiden, Dennekoplaan",null,4.6457295417785645,52.42985534667969,0.0,null,9816,"Hoofddorp, Graan voor Visch",4.683361,52.2954,IN_TRANSIT_TO,PT28H39M,1643600366,PT28H39M,1643600366,37
1643602227,366191,63689,1,20220130,143715670,"IJmuiden Dennekoplaan - Amsterdam Bijlmer ArenA",CXX,2367379,"Amsterdam, Station Bijlmer ArenA",1828327,"Haarlem, Station H",null,4.693774700164795,52.29030990600586,0.0,null,9822,"Hoofddorp, Graan voor Visch",4.683361,52.2954,IN_TRANSIT_TO,PT29H9M,1643602316,PT29H9M,1643602316,37
1643602228,366191,79830,1,20220130,143715940,"Nieuw-Vennep P+R Getsewoud Zuid - Amsterdam CS",CXX,2431360,"Amsterdam, Centraal Station",2437970,"Nieuw-Vennep, P+R Getsewoud Zuid",null,4.760223865509033,52.30952072143555,0.0,null,2749,"Hoofddorp, Graan voor Visch",4.683361,52.2954,STOPPED_AT,PT29H18M,1643602696,PT29H18M,1643602696,45
1643602220,366191,79847,1,20220130,143720668,"Haarlem Station - Amsterdam Bijlmer ArenA",CXX,2340430,"Amsterdam, Station Bijlmer ArenA",1828396,"Haarlem, Station",null,4.869431972503662,52.30384063720703,0.0,null,9803,"Hoofddorp, Graan voor Visch",4.683361,52.2954,IN_TRANSIT_TO,PT29H37M,1643603838,PT29H37M,1643603838,34
1643602227,366191,79854,1,20220130,143728269,"Nieuw-Vennep P+R Getsew - Amsterdam Elandsgracht",CXX,2314239,"Amsterdam, Busstation Elandsgracht",2437970,"Nieuw-Vennep, P+R Getsewoud Zuid",null,4.876527786254883,52.35490417480469,0.0,null,9352,"Hoofddorp, Graan voor Visch",4.683361,52.2954,IN_TRANSIT_TO,PT29H46M,1643604372,PT29H46M,1643604388,37
1643602219,366440,63689,0,20220130,143715669,"IJmuiden Dennekoplaan - Amsterdam Bijlmer ArenA",CXX,364790,"IJmuiden, Dennekoplaan",1928634,"Amsterdam, Station Bijlmer ArenA",null,4.83457088470459,52.30582809448242,0.0,null,9823,"Haarlem, Schalkwijk Centrum",4.65668,52.360563,IN_TRANSIT_TO,PT28H35M,1643599988,PT28H35M,1643600118,26
1643602216,366900,63689,1,20220130,143715668,"IJmuiden Dennekoplaan - Amsterdam Bijlmer ArenA",CXX,2367379,"Amsterdam, Station Bijlmer ArenA",435308,"IJmuiden, Dennekoplaan",null,4.6457295417785645,52.42985534667969,0.0,null,9816,"Hoofddorp, Station",4.698437,52.292109,IN_TRANSIT_TO,PT28H37M,1643600255,PT28H37M,1643600285,35
1643602227,366900,63689,1,20220130,143715670,"IJmuiden Dennekoplaan - Amsterdam Bijlmer ArenA",CXX,2367379,"Amsterdam, Station Bijlmer ArenA",1828327,"Haarlem, Station H",null,4.693774700164795,52.29030990600586,0.0,null,9822,"Hoofddorp, Station",4.698437,52.292109,IN_TRANSIT_TO,PT29H7M,1643602182,PT29H7M,1643602197,35
1643602228,366900,79830,1,20220130,143715940,"Nieuw-Vennep P+R Getsewoud Zuid - Amsterdam CS",CXX,2431360,"Amsterdam, Centraal Station",2437970,"Nieuw-Vennep, P+R Getsewoud Zuid",null,4.760223865509033,52.30952072143555,0.0,null,2749,"Hoofddorp, Station",4.698437,52.292109,STOPPED_AT,PT29H16M,1643602631,PT29H16M,1643602631,43
1643602220,366900,79847,1,20220130,143720668,"Haarlem Station - Amsterdam Bijlmer ArenA",CXX,2340430,"Amsterdam, Station Bijlmer ArenA",1828396,"Haarlem, Station",null,4.869431972503662,52.30384063720703,0.0,null,9803,"Hoofddorp, Station",4.698437,52.292109,IN_TRANSIT_TO,PT29H34M,1643603702,PT29H34M,1643603722,32
1643602227,366900,79854,1,20220130,143728269,"Nieuw-Vennep P+R Getsew - Amsterdam Elandsgracht",CXX,2314239,"Amsterdam, Busstation Elandsgracht",2437970,"Nieuw-Vennep, P+R Getsewoud Zuid",null,4.876527786254883,52.35490417480469,0.0,null,9352,"Hoofddorp, Station",4.698437,52.292109,IN_TRANSIT_TO,PT29H44M,1643604228,PT29H44M,1643604255,35
1643602228,382041,79830,1,20220130,143715940,"Nieuw-Vennep P+R Getsewoud Zuid - Amsterdam CS",CXX,2431360,"Amsterdam, Centraal Station",2437970,"Nieuw-Vennep, P+R Getsewoud Zuid",null,4.760223865509033,52.30952072143555,0.0,null,2749,"Amsterdam, Marnixstraat",4.876253,52.372446,STOPPED_AT,PT28H39M,1643600313,PT28H39M,1643600360,4
1643602216,382048,63689,1,20220130,143715668,"IJmuiden Dennekoplaan - Amsterdam Bijlmer ArenA",CXX,2367379,"Amsterdam, Station Bijlmer ArenA",435308,"IJmuiden, Dennekoplaan",null,4.6457295417785645,52.42985534667969,0.0,null,9816,"Hoofddorp, Beukenhorst",4.709021,52.289178,IN_TRANSIT_TO,PT28H35M,1643600192,PT28H35M,1643600192,33
1643602227,382048,63689,1,20220130,143715670,"IJmuiden Dennekoplaan - Amsterdam Bijlmer ArenA",CXX,2367379,"Amsterdam, Station Bijlmer ArenA",1828327,"Haarlem, Station H",null,4.693774700164795,52.29030990600586,0.0,null,9822,"Hoofddorp, Beukenhorst",4.709021,52.289178,IN_TRANSIT_TO,PT29H5M,1643602093,PT29H5M,1643602108,33
1643602228,382048,79830,1,20220130,143715940,"Nieuw-Vennep P+R Getsewoud Zuid - Amsterdam CS",CXX,2431360,"Amsterdam, Centraal Station",2437970,"Nieuw-Vennep, P+R Getsewoud Zuid",null,4.760223865509033,52.30952072143555,0.0,null,2749,"Hoofddorp, Beukenhorst",4.709021,52.289178,STOPPED_AT,PT29H15M,1643602556,PT29H15M,1643602556,41
1643602220,382048,79847,1,20220130,143720668,"Haarlem Station - Amsterdam Bijlmer ArenA",CXX,2340430,"Amsterdam, Station Bijlmer ArenA",1828396,"Haarlem, Station",null,4.869431972503662,52.30384063720703,0.0,null,9803,"Hoofddorp, Beukenhorst",4.709021,52.289178,IN_TRANSIT_TO,PT29H33M,1643603615,PT29H33M,1643603631,30
1643602227,382048,79854,1,20220130,143728269,"Nieuw-Vennep P+R Getsew - Amsterdam Elandsgracht",CXX,2314239,"Amsterdam, Busstation Elandsgracht",2437970,"Nieuw-Vennep, P+R Getsewoud Zuid",null,4.876527786254883,52.35490417480469,0.0,null,9352,"Hoofddorp, Beukenhorst",4.709021,52.289178,IN_TRANSIT_TO,PT29H42M,1643604127,PT29H42M,1643604146,33
1643602228,382103,79830,1,20220130,143715940,"Nieuw-Vennep P+R Getsewoud Zuid - Amsterdam CS",CXX,2431360,"Amsterdam, Centraal Station",2437970,"Nieuw-Vennep, P+R Getsewoud Zuid",null,4.760223865509033,52.30952072143555,0.0,null,2749,"Amsterdam, Nieuwezijds Kolk",4.893056,52.375968,STOPPED_AT,PT28H35M,1643600128,PT28H35M,1643600128,1
1643602219,416965,63689,0,20220130,143715669,"IJmuiden Dennekoplaan - Amsterdam Bijlmer ArenA",CXX,364790,"IJmuiden, Dennekoplaan",1928634,"Amsterdam, Station Bijlmer ArenA",null,4.83457088470459,52.30582809448242,0.0,null,9823,"IJmuiden, Zwaanstraat",4.602295,52.455576,IN_TRANSIT_TO,PT28H4M,1643598156,PT28H4M,1643598156,2
1643602216,417088,63689,1,20220130,143715668,"IJmuiden Dennekoplaan - Amsterdam Bijlmer ArenA",CXX,2367379,"Amsterdam, Station Bijlmer ArenA",435308,"IJmuiden, Dennekoplaan",null,4.6457295417785645,52.42985534667969,0.0,null,9816,"Amsterdam, Holterbergweg",4.939845,52.308899,IN_TRANSIT_TO,PT28H5M,1643598374,PT28H5M,1643598374,4
1643602227,417088,63689,1,20220130,143715670,"IJmuiden Dennekoplaan - Amsterdam Bijlmer ArenA",CXX,2367379,"Amsterdam, Station Bijlmer ArenA",1828327,"Haarlem, Station H",null,4.693774700164795,52.29030990600586,0.0,null,9822,"Amsterdam, Holterbergweg",4.939845,52.308899,IN_TRANSIT_TO,PT28H35M,1643600149,PT28H35M,1643600149,4
1643602220,417088,79847,1,20220130,143720668,"Haarlem Station - Amsterdam Bijlmer ArenA",CXX,2340430,"Amsterdam, Station Bijlmer ArenA",1828396,"Haarlem, Station",null,4.869431972503662,52.30384063720703,0.0,null,9803,"Amsterdam, Holterbergweg",4.939845,52.308899,IN_TRANSIT_TO,PT29H2M,1643601710,PT29H2M,1643601710,4
1643602219,417330,63689,0,20220130,143715669,"IJmuiden Dennekoplaan - Amsterdam Bijlmer ArenA",CXX,364790,"IJmuiden, Dennekoplaan",1928634,"Amsterdam, Station Bijlmer ArenA",null,4.83457088470459,52.30582809448242,0.0,null,9823,"Hoofddorp, Beukenhorst",4.709363,52.288892,IN_TRANSIT_TO,PT28H52M,1643601138,PT28H52M,1643601138,40
1643602219,418720,63689,0,20220130,143715669,"IJmuiden Dennekoplaan - Amsterdam Bijlmer ArenA",CXX,364790,"IJmuiden, Dennekoplaan",1928634,"Amsterdam, Station Bijlmer ArenA",null,4.83457088470459,52.30582809448242,0.0,null,9823,"IJmuiden, Zeewijkplein",4.595549,52.448575,IN_TRANSIT_TO,PT28H2M,1643598087,PT28H2M,1643598087,1
1643602227,418780,79854,1,20220130,143728269,"Nieuw-Vennep P+R Getsew - Amsterdam Elandsgracht",CXX,2314239,"Amsterdam, Busstation Elandsgracht",2437970,"Nieuw-Vennep, P+R Getsewoud Zuid",null,4.876527786254883,52.35490417480469,0.0,null,9352,"Hoofddorp, Toolenburg Zuid",4.657224,52.295359,IN_TRANSIT_TO,PT29H50M,1643604584,PT29H50M,1643604584,41
1643602228,419484,79830,1,20220130,143715940,"Nieuw-Vennep P+R Getsewoud Zuid - Amsterdam CS",CXX,2431360,"Amsterdam, Centraal Station",2437970,"Nieuw-Vennep, P+R Getsewoud Zuid",null,4.760223865509033,52.30952072143555,0.0,null,2749,"Hoofddorp, Toolenburg Oost",4.670945,52.297177,STOPPED_AT,PT29H20M,1643602800,PT29H20M,1643602800,46
1643602227,419484,79854,1,20220130,143728269,"Nieuw-Vennep P+R Getsew - Amsterdam Elandsgracht",CXX,2314239,"Amsterdam, Busstation Elandsgracht",2437970,"Nieuw-Vennep, P+R Getsewoud Zuid",null,4.876527786254883,52.35490417480469,0.0,null,9352,"Hoofddorp, Toolenburg Oost",4.670945,52.297177,IN_TRANSIT_TO,PT29H48M,1643604478,PT29H48M,1643604508,38
1643602216,435294,63689,1,20220130,143715668,"IJmuiden Dennekoplaan - Amsterdam Bijlmer ArenA",CXX,2367379,"Amsterdam, Station Bijlmer ArenA",435308,"IJmuiden, Dennekoplaan",null,4.6457295417785645,52.42985534667969,0.0,null,9816,"Haarlem, Minahassastraat",4.650577,52.408907,IN_TRANSIT_TO,PT29H7M,1643602011,PT29H7M,1643602011,61
1643602227,435330,79854,1,20220130,143728269,"Nieuw-Vennep P+R Getsew - Amsterdam Elandsgracht",CXX,2314239,"Amsterdam, Busstation Elandsgracht",2437970,"Nieuw-Vennep, P+R Getsewoud Zuid",null,4.876527786254883,52.35490417480469,0.0,null,9352,"Nieuw-Vennep, Getsewoud Centrum",4.62194,52.270607,IN_TRANSIT_TO,PT29H54M,1643604846,PT29H54M,1643604864,46
1643602219,435472,63689,0,20220130,143715669,"IJmuiden Dennekoplaan - Amsterdam Bijlmer ArenA",CXX,364790,"IJmuiden, Dennekoplaan",1928634,"Amsterdam, Station Bijlmer ArenA",null,4.83457088470459,52.30582809448242,0.0,null,9823,"Haarlem, Julianapark",4.64267,52.397551,IN_TRANSIT_TO,PT28H22M,1643599208,PT28H22M,1643599208,13
1643602216,435504,63689,1,20220130,143715668,"IJmuiden Dennekoplaan - Amsterdam Bijlmer ArenA",CXX,2367379,"Amsterdam, Station Bijlmer ArenA",435308,"IJmuiden, Dennekoplaan",null,4.6457295417785645,52.42985534667969,0.0,null,9816,"Haarlem, Julianapark",4.642991,52.397714,IN_TRANSIT_TO,PT29H4M,1643601909,PT29H4M,1643601909,60
1643602227,441080,79854,1,20220130,143728269,"Nieuw-Vennep P+R Getsew - Amsterdam Elandsgracht",CXX,2314239,"Amsterdam, Busstation Elandsgracht",2437970,"Nieuw-Vennep, P+R Getsewoud Zuid",null,4.876527786254883,52.35490417480469,0.0,null,9352,"Nieuw-Vennep, Getsewoud Zuid",4.613777,52.264873,IN_TRANSIT_TO,PT29H57M,1643604933,PT29H57M,1643604933,48
1643602219,482105,63689,0,20220130,143715669,"IJmuiden Dennekoplaan - Amsterdam Bijlmer ArenA",CXX,364790,"IJmuiden, Dennekoplaan",1928634,"Amsterdam, Station Bijlmer ArenA",null,4.83457088470459,52.30582809448242,0.0,null,9823,"Schiphol, P40 Parkeerterrein",4.774789,52.322028,IN_TRANSIT_TO,PT29H4M,1643601803,PT29H4M,1643601803,51
1643602219,482116,63689,0,20220130,143715669,"IJmuiden Dennekoplaan - Amsterdam Bijlmer ArenA",CXX,364790,"IJmuiden, Dennekoplaan",1928634,"Amsterdam, Station Bijlmer ArenA",null,4.83457088470459,52.30582809448242,0.0,null,9823,"Schiphol, Handelskade",4.751239,52.303155,IN_TRANSIT_TO,PT28H56M,1643601358,PT28H56M,1643601373,45
1643602216,482179,63689,1,20220130,143715668,"IJmuiden Dennekoplaan - Amsterdam Bijlmer ArenA",CXX,2367379,"Amsterdam, Station Bijlmer ArenA",435308,"IJmuiden, Dennekoplaan",null,4.6457295417785645,52.42985534667969,0.0,null,9816,"Schiphol, Handelskade",4.750917,52.303099,IN_TRANSIT_TO,PT28H31M,1643599995,PT28H31M,1643599995,28
1643602227,482179,63689,1,20220130,143715670,"IJmuiden Dennekoplaan - Amsterdam Bijlmer ArenA",CXX,2367379,"Amsterdam, Station Bijlmer ArenA",1828327,"Haarlem, Station H",null,4.693774700164795,52.29030990600586,0.0,null,9822,"Schiphol, Handelskade",4.750917,52.303099,IN_TRANSIT_TO,PT29H1M,1643601863,PT29H1M,1643601878,28
1643602227,482179,79854,1,20220130,143728269,"Nieuw-Vennep P+R Getsew - Amsterdam Elandsgracht",CXX,2314239,"Amsterdam, Busstation Elandsgracht",2437970,"Nieuw-Vennep, P+R Getsewoud Zuid",null,4.876527786254883,52.35490417480469,0.0,null,9352,"Schiphol, Handelskade",4.750917,52.303099,IN_TRANSIT_TO,PT29H39M,1643603868,PT29H39M,1643603884,28
1643602219,499751,63689,0,20220130,143715669,"IJmuiden Dennekoplaan - Amsterdam Bijlmer ArenA",CXX,364790,"IJmuiden, Dennekoplaan",1928634,"Amsterdam, Station Bijlmer ArenA",null,4.83457088470459,52.30582809448242,0.0,null,9823,"Haarlem, Delftplein/Spaarne Gasth.",4.648294,52.423309,IN_TRANSIT_TO,PT28H16M,1643598815,PT28H16M,1643598974,11
1643602216,499772,63689,1,20220130,143715668,"IJmuiden Dennekoplaan - Amsterdam Bijlmer ArenA",CXX,2367379,"Amsterdam, Station Bijlmer ArenA",435308,"IJmuiden, Dennekoplaan",null,4.6457295417785645,52.42985534667969,0.0,null,9816,"Haarlem, Delftplein/Spaarne Gasth.",4.648426,52.423346,IN_TRANSIT_TO,PT29H10M,1643602141,PT29H10M,1643602171,62
1643607326,504749,32189,1,20220131,144733959,"Zuid-Beijerland-Heinenoord",CXX,504749,"Heinenoord, Busstation",2295759,"Zuid-Beijerland, R. van Dorplaan",null,4.43951416015625,51.73754119873047,0.0,null,5885,"Heinenoord, Busstation",4.495856,51.814948,IN_TRANSIT_TO,PT6H18M,0,PT6H18M,1643606296,0
1643607326,504759,32189,1,20220131,144733959,"Zuid-Beijerland-Heinenoord",CXX,504749,"Heinenoord, Busstation",2295759,"Zuid-Beijerland, R. van Dorplaan",null,4.43951416015625,51.73754119873047,0.0,null,5885,"Klaaswaal, Rijksstraatweg",4.443822,51.766989,IN_TRANSIT_TO,PT6H31M,1643606990,PT6H31M,1643607007,5
1643607326,504779,32189,1,20220131,144733959,"Zuid-Beijerland-Heinenoord",CXX,504749,"Heinenoord, Busstation",2295759,"Zuid-Beijerland, R. van Dorplaan",null,4.43951416015625,51.73754119873047,0.0,null,5885,"Numansdorp, Proeftuinlaan",4.441864,51.74771,IN_TRANSIT_TO,PT6H34M,1643607177,PT6H34M,1643607177,7
1643607326,504814,32189,1,20220131,144733959,"Zuid-Beijerland-Heinenoord",CXX,504749,"Heinenoord, Busstation",2295759,"Zuid-Beijerland, R. van Dorplaan",null,4.43951416015625,51.73754119873047,0.0,null,5885,"Numansdorp, Oudesluis",4.443939,51.760698,IN_TRANSIT_TO,PT6H32M,1643607066,PT6H32M,1643607066,6
1643607326,504831,32189,1,20220131,144733959,"Zuid-Beijerland-Heinenoord",CXX,504749,"Heinenoord, Busstation",2295759,"Zuid-Beijerland, R. van Dorplaan",null,4.43951416015625,51.73754119873047,0.0,null,5885,"Mijnsheerenland, Provincialeweg",4.477911,51.80005,IN_TRANSIT_TO,PT6H22M,1643606481,PT6H22M,1643606481,2
1643607326,504852,32189,1,20220131,144733959,"Zuid-Beijerland-Heinenoord",CXX,504749,"Heinenoord, Busstation",2295759,"Zuid-Beijerland, R. van Dorplaan",null,4.43951416015625,51.73754119873047,0.0,null,5885,"Numansdorp, Middelsluis",4.4405,51.743681,IN_TRANSIT_TO,PT6H35M,1643607251,PT6H35M,1643607251,8
1643607326,504867,32189,1,20220131,144733959,"Zuid-Beijerland-Heinenoord",CXX,504749,"Heinenoord, Busstation",2295759,"Zuid-Beijerland, R. van Dorplaan",null,4.43951416015625,51.73754119873047,0.0,null,5885,"Numansdorp, Burg. Henrylaan",4.438965,51.736109,IN_TRANSIT_TO,PT6H37M,1643607352,PT6H37M,1643607352,9
1643607326,504877,32189,1,20220131,144733959,"Zuid-Beijerland-Heinenoord",CXX,504749,"Heinenoord, Busstation",2295759,"Zuid-Beijerland, R. van Dorplaan",null,4.43951416015625,51.73754119873047,0.0,null,5885,"Numansdorp, Hallinxweg",4.438407,51.733021,IN_TRANSIT_TO,PT6H38M,1643607433,PT6H38M,1643607433,10
1643607320,504929,32189,0,20220131,144733960,"Zuid-Beijerland-Heinenoord",CXX,2295759,"Zuid-Beijerland, R. van Dorplaan",1927008,"Heinenoord, Busstation",null,4.48330545425415,51.80797576904297,0.0,null,5882,"Numansdorp, Middelsluis",4.440867,51.744161,IN_TRANSIT_TO,PT6H23M,1643606586,PT6H23M,1643606586,12
1643607320,504937,32189,0,20220131,144733960,"Zuid-Beijerland-Heinenoord",CXX,2295759,"Zuid-Beijerland, R. van Dorplaan",1927008,"Heinenoord, Busstation",null,4.48330545425415,51.80797576904297,0.0,null,5882,"Numansdorp, Burg. Henrylaan",4.439496,51.73703,IN_TRANSIT_TO,PT6H22M,1643606487,PT6H22M,1643606511,11
1643607320,504938,32189,0,20220131,144733960,"Zuid-Beijerland-Heinenoord",CXX,2295759,"Zuid-Beijerland, R. van Dorplaan",1927008,"Heinenoord, Busstation",null,4.48330545425415,51.80797576904297,0.0,null,5882,"Numansdorp, Burg. de Zeeuwstraat",4.43833,51.730522,IN_TRANSIT_TO,PT6H20M,1643606361,PT6H20M,1643606386,9
1643607320,504962,32189,0,20220131,144733960,"Zuid-Beijerland-Heinenoord",CXX,2295759,"Zuid-Beijerland, R. van Dorplaan",1927008,"Heinenoord, Busstation",null,4.48330545425415,51.80797576904297,0.0,null,5882,"Klaaswaal, Molendijk",4.440486,51.774091,IN_TRANSIT_TO,PT6H28M,1643606834,PT6H28M,1643606865,16
1643607320,504992,32189,0,20220131,144733960,"Zuid-Beijerland-Heinenoord",CXX,2295759,"Zuid-Beijerland, R. van Dorplaan",1927008,"Heinenoord, Busstation",null,4.48330545425415,51.80797576904297,0.0,null,5882,"Mijnsheerenland, Provincialeweg",4.479287,51.801562,IN_TRANSIT_TO,PT6H35M,1643607251,PT6H35M,1643607275,18
1643602228,511085,79830,1,20220130,143715940,"Nieuw-Vennep P+R Getsewoud Zuid - Amsterdam CS",CXX,2431360,"Amsterdam, Centraal Station",2437970,"Nieuw-Vennep, P+R Getsewoud Zuid",null,4.760223865509033,52.30952072143555,0.0,null,2749,"Amsterdam, Amstelveenseweg",4.858691,52.339123,STOPPED_AT,PT28H53M,1643601251,PT28H53M,1643601282,18
1643602227,511085,79854,1,20220130,143728269,"Nieuw-Vennep P+R Getsew - Amsterdam Elandsgracht",CXX,2314239,"Amsterdam, Busstation Elandsgracht",2437970,"Nieuw-Vennep, P+R Getsewoud Zuid",null,4.876527786254883,52.35490417480469,0.0,null,9352,"Amsterdam, Amstelveenseweg",4.858691,52.339123,IN_TRANSIT_TO,PT29H19M,1643602667,PT29H19M,1643602750,13
1643602228,511116,79830,1,20220130,143715940,"Nieuw-Vennep P+R Getsewoud Zuid - Amsterdam CS",CXX,2431360,"Amsterdam, Centraal Station",2437970,"Nieuw-Vennep, P+R Getsewoud Zuid",null,4.760223865509033,52.30952072143555,0.0,null,2749,"Schiphol, Cateringweg",4.799812,52.323188,STOPPED_AT,PT29H,1643601658,PT29H,1643601688,23
1643602227,511116,79854,1,20220130,143728269,"Nieuw-Vennep P+R Getsew - Amsterdam Elandsgracht",CXX,2314239,"Amsterdam, Busstation Elandsgracht",2437970,"Nieuw-Vennep, P+R Getsewoud Zuid",null,4.876527786254883,52.35490417480469,0.0,null,9352,"Schiphol, Cateringweg",4.799812,52.323188,IN_TRANSIT_TO,PT29H27M,1643603143,PT29H27M,1643603220,18
1643602228,521351,79830,1,20220130,143715940,"Nieuw-Vennep P+R Getsewoud Zuid - Amsterdam CS",CXX,2431360,"Amsterdam, Centraal Station",2437970,"Nieuw-Vennep, P+R Getsewoud Zuid",null,4.760223865509033,52.30952072143555,0.0,null,2749,"Amsterdam, Anderlechtlaan",4.814303,52.335726,STOPPED_AT,PT28H58M,1643601512,PT28H58M,1643601512,21
1643602227,521351,79854,1,20220130,143728269,"Nieuw-Vennep P+R Getsew - Amsterdam Elandsgracht",CXX,2314239,"Amsterdam, Busstation Elandsgracht",2437970,"Nieuw-Vennep, P+R Getsewoud Zuid",null,4.876527786254883,52.35490417480469,0.0,null,9352,"Amsterdam, Anderlechtlaan",4.814303,52.335726,IN_TRANSIT_TO,PT29H24M,1643603002,PT29H24M,1643603002,16
1643607326,547462,32189,1,20220131,144733959,"Zuid-Beijerland-Heinenoord",CXX,504749,"Heinenoord, Busstation",2295759,"Zuid-Beijerland, R. van Dorplaan",null,4.43951416015625,51.73754119873047,0.0,null,5885,"Klaaswaal, Molendijk",4.441004,51.772881,IN_TRANSIT_TO,PT6H29M,1643606907,PT6H29M,1643606923,4
1643607326,547499,32189,1,20220131,144733959,"Zuid-Beijerland-Heinenoord",CXX,504749,"Heinenoord, Busstation",2295759,"Zuid-Beijerland, R. van Dorplaan",null,4.43951416015625,51.73754119873047,0.0,null,5885,"Numansdorp, Burg. de Zeeuwstraat",4.43807,51.72981,IN_TRANSIT_TO,PT6H39M,1643607511,PT6H39M,1643607511,11
1643602216,547797,63689,1,20220130,143715668,"IJmuiden Dennekoplaan - Amsterdam Bijlmer ArenA",CXX,2367379,"Amsterdam, Station Bijlmer ArenA",435308,"IJmuiden, Dennekoplaan",null,4.6457295417785645,52.42985534667969,0.0,null,9816,"Schiphol, P40 Parkeerterrein",4.774923,52.321912,IN_TRANSIT_TO,PT28H24M,1643599584,PT28H24M,1643599584,23
1643602227,547797,63689,1,20220130,143715670,"IJmuiden Dennekoplaan - Amsterdam Bijlmer ArenA",CXX,2367379,"Amsterdam, Station Bijlmer ArenA",1828327,"Haarlem, Station H",null,4.693774700164795,52.29030990600586,0.0,null,9822,"Schiphol, P40 Parkeerterrein",4.774923,52.321912,IN_TRANSIT_TO,PT28H54M,1643601397,PT28H54M,1643601411,23
1643602228,547797,79830,1,20220130,143715940,"Nieuw-Vennep P+R Getsewoud Zuid - Amsterdam CS",CXX,2431360,"Amsterdam, Centraal Station",2437970,"Nieuw-Vennep, P+R Getsewoud Zuid",null,4.760223865509033,52.30952072143555,0.0,null,2749,"Schiphol, P40 Parkeerterrein",4.774923,52.321912,STOPPED_AT,PT29H4M,1643601890,PT29H4M,1643601931,30
1643607320,547838,32189,0,20220131,144733960,"Zuid-Beijerland-Heinenoord",CXX,2295759,"Zuid-Beijerland, R. van Dorplaan",1927008,"Heinenoord, Busstation",null,4.48330545425415,51.80797576904297,0.0,null,5882,"Numansdorp, Oudesluis",4.444172,51.760619,IN_TRANSIT_TO,PT6H25M,1643606711,PT6H25M,1643606711,14
1643602216,548943,63689,1,20220130,143715668,"IJmuiden Dennekoplaan - Amsterdam Bijlmer ArenA",CXX,2367379,"Amsterdam, Station Bijlmer ArenA",435308,"IJmuiden, Dennekoplaan",null,4.6457295417785645,52.42985534667969,0.0,null,9816,"Schiphol, Elzenhof/P5",4.786388,52.323373,IN_TRANSIT_TO,PT28H23M,1643599496,PT28H23M,1643599496,21
1643602227,548943,63689,1,20220130,143715670,"IJmuiden Dennekoplaan - Amsterdam Bijlmer ArenA",CXX,2367379,"Amsterdam, Station Bijlmer ArenA",1828327,"Haarlem, Station H",null,4.693774700164795,52.29030990600586,0.0,null,9822,"Schiphol, Elzenhof/P5",4.786388,52.323373,IN_TRANSIT_TO,PT28H53M,1643601298,PT28H53M,1643601324,21
1643602228,548943,79830,1,20220130,143715940,"Nieuw-Vennep P+R Getsewoud Zuid - Amsterdam CS",CXX,2431360,"Amsterdam, Centraal Station",2437970,"Nieuw-Vennep, P+R Getsewoud Zuid",null,4.760223865509033,52.30952072143555,0.0,null,2749,"Schiphol, Elzenhof/P5",4.786388,52.323373,STOPPED_AT,PT29H2M,1643601825,PT29H2M,1643601825,28
1643602219,549022,63689,0,20220130,143715669,"IJmuiden Dennekoplaan - Amsterdam Bijlmer ArenA",CXX,364790,"IJmuiden, Dennekoplaan",1928634,"Amsterdam, Station Bijlmer ArenA",null,4.83457088470459,52.30582809448242,0.0,null,9823,"Schiphol, Elzenhof/P5",4.785444,52.323754,IN_TRANSIT_TO,PT29H5M,1643601866,PT29H5M,1643601866,52
1643602216,648485,63689,1,20220130,143715668,"IJmuiden Dennekoplaan - Amsterdam Bijlmer ArenA",CXX,2367379,"Amsterdam, Station Bijlmer ArenA",435308,"IJmuiden, Dennekoplaan",null,4.6457295417785645,52.42985534667969,0.0,null,9816,"Santpoort-Noord, Hagelingerweg",4.644712,52.432643,IN_TRANSIT_TO,PT29H12M,1643602250,PT29H12M,1643602250,63
1643602219,648496,63689,0,20220130,143715669,"IJmuiden Dennekoplaan - Amsterdam Bijlmer ArenA",CXX,364790,"IJmuiden, Dennekoplaan",1928634,"Amsterdam, Station Bijlmer ArenA",null,4.83457088470459,52.30582809448242,0.0,null,9823,"IJmuiden, Plein 1945",4.62525,52.459572,IN_TRANSIT_TO,PT28H7M,1643598315,PT28H7M,1643598390,5
1643602219,827172,63689,0,20220130,143715669,"IJmuiden Dennekoplaan - Amsterdam Bijlmer ArenA",CXX,364790,"IJmuiden, Dennekoplaan",1928634,"Amsterdam, Station Bijlmer ArenA",null,4.83457088470459,52.30582809448242,0.0,null,9823,"IJmuiden, Zeeweg",4.627369,52.456144,IN_TRANSIT_TO,PT28H8M,1643598392,PT28H8M,1643598392,6
1643602216,939679,63689,1,20220130,143715668,"IJmuiden Dennekoplaan - Amsterdam Bijlmer ArenA",CXX,2367379,"Amsterdam, Station Bijlmer ArenA",435308,"IJmuiden, Dennekoplaan",null,4.6457295417785645,52.42985534667969,0.0,null,9816,"Haarlem, Schalkwijk Centrum",4.655872,52.360603,IN_TRANSIT_TO,PT28H51M,1643601163,PT28H51M,1643601163,47
1643602227,939679,63689,1,20220130,143715670,"IJmuiden Dennekoplaan - Amsterdam Bijlmer ArenA",CXX,2367379,"Amsterdam, Station Bijlmer ArenA",1828327,"Haarlem, Station H",null,4.693774700164795,52.29030990600586,0.0,null,9822,"Haarlem, Schalkwijk Centrum",4.655872,52.360603,IN_TRANSIT_TO,PT29H21M,1643602860,PT29H21M,1643602860,47
1643602220,939679,79847,1,20220130,143720668,"Haarlem Station - Amsterdam Bijlmer ArenA",CXX,2340430,"Amsterdam, Station Bijlmer ArenA",1828396,"Haarlem, Station",null,4.869431972503662,52.30384063720703,0.0,null,9803,"Haarlem, Schalkwijk Centrum",4.655872,52.360603,IN_TRANSIT_TO,PT29H51M,1643604712,PT29H51M,1643604730,46
1643602219,939681,63689,0,20220130,143715669,"IJmuiden Dennekoplaan - Amsterdam Bijlmer ArenA",CXX,364790,"IJmuiden, Dennekoplaan",1928634,"Amsterdam, Station Bijlmer ArenA",null,4.83457088470459,52.30582809448242,0.0,null,9823,"Hoofddorp, Station",4.698933,52.292274,IN_TRANSIT_TO,PT28H51M,1643601035,PT28H51M,1643601074,39
